{
  "type": "FeatureCollection",
  "features": [
    {
      "type": "Feature",
      "geometry": {
        "type": "Point",
        "coordinates": [
          14.972313344478605,
          38.14891395719083
        ]
      },
      "properties": {
        "_storage_options": {
          "iconClass": "Drop"
        },
        "name": "\"Tablinum\" della Villa (II - III sec. d.C.) con Mosaico di Bacco"
      }
    },
    {
      "type": "Feature",
      "geometry": {
        "type": "Point",
        "coordinates": [
          14.972908794879915,
          38.148916066501336
        ]
      },
      "properties": {
        "_storage_options": {
          "iconClass": "Drop"
        },
        "name": "Impianti Termali"
      }
    },
    {
      "type": "Feature",
      "geometry": {
        "type": "Point",
        "coordinates": [
          14.972181916236876,
          38.14890235598196
        ]
      },
      "properties": {
        "_storage_options": {
          "iconClass": "Drop"
        },
        "name": "Ingresso Secondario della Villa"
      }
    },
    {
      "type": "Feature",
      "geometry": {
        "type": "Point",
        "coordinates": [
          14.971933811903,
          38.14899305629302
        ]
      },
      "properties": {
        "_storage_options": {
          "iconClass": "Drop"
        },
        "name": "inizio e fine percorso di visita"
      }
    },
    {
      "type": "Feature",
      "geometry": {
        "type": "Point",
        "coordinates": [
          14.971489906311035,
          38.14892872236308
        ]
      },
      "properties": {
        "_storage_options": {
          "iconClass": "Drop"
        },
        "name": "Museo"
      }
    },
    {
      "type": "Feature",
      "geometry": {
        "type": "LineString",
        "coordinates": [
          [
            14.971941858530046,
            38.14899622025531
          ],
          [
            14.972216784954071,
            38.1488991920156
          ],
          [
            14.972250312566757,
            38.14894454218719
          ],
          [
            14.972171187400818,
            38.148777906534434
          ],
          [
            14.972391128540039,
            38.14870829912374
          ],
          [
            14.972517192363739,
            38.14894981546113
          ],
          [
            14.97263252735138,
            38.148912902535564
          ],
          [
            14.972450137138365,
            38.14852373369804
          ],
          [
            14.971976727247236,
            38.14865767551058
          ],
          [
            14.971933811903,
            38.148981455096724
          ]
        ]
      },
      "properties": {
        "name": "percorso di visita"
      }
    },
    {
      "type": "Feature",
      "geometry": {
        "type": "Point",
        "coordinates": [
          14.97226908802986,
          38.14880216364678
        ]
      },
      "properties": {
        "_storage_options": {
          "iconClass": "Drop"
        },
        "name": "Peristilio della Villa (II - III sec. d.C.)"
      }
    },
    {
      "type": "Feature",
      "geometry": {
        "type": "Point",
        "coordinates": [
          14.972160458564758,
          38.148768414618694
        ]
      },
      "properties": {
        "_storage_options": {
          "iconClass": "Drop"
        },
        "name": "Portico del Peristilio"
      }
    },
    {
      "type": "Feature",
      "geometry": {
        "type": "Point",
        "coordinates": [
          14.97263789176941,
          38.14931261579261
        ]
      },
      "properties": {
        "_storage_options": {
          "iconClass": "Drop"
        },
        "name": "Portico Esterno"
      }
    },
    {
      "type": "Feature",
      "geometry": {
        "type": "Point",
        "coordinates": [
          14.9725104868412,
          38.14877368790538
        ]
      },
      "properties": {
        "_storage_options": {
          "iconClass": "Drop"
        },
        "name": "Sala Absidata"
      }
    },
    {
      "type": "Feature",
      "geometry": {
        "type": "Point",
        "coordinates": [
          14.97224763035774,
          38.14866927675838
        ]
      },
      "properties": {
        "_storage_options": {
          "iconClass": "Drop"
        },
        "name": "Sala Triabsidata (Triclinium)"
      }
    },
    {
      "type": "Feature",
      "geometry": {
        "type": "Point",
        "coordinates": [
          14.972179234027863,
          38.14895614338934
        ]
      },
      "properties": {
        "_storage_options": {
          "iconClass": "Drop"
        },
        "name": "Vano con Mosaico della Medusa"
      }
    }
  ]
}